[{"name":"dct academy","address":"#430, A 560011, 28th Main Rd, 4th Block, Bengaluru, Karnataka, India","latitude":12.9299899,"longitude":77.5853953},{"name":"cool joint jayanagar","address":"No. 70, 11th Main, 30th Cross, 4th Block, Jayanagar, Bengaluru, Karnataka 560011, India","latitude":12.9288091,"longitude":77.5858992},{"name":"raja seat madikeri","address":"Raja's Seat, Stuart Hill, Madikeri, Karnataka 571201, India","latitude":12.4141582,"longitude":75.7369566},{"name":"mysore mailari basavanagudi","address":"Bugle Rock Rd, Gandhi Bazaar, Basavanagudi, Bengaluru, Karnataka 560004, India","latitude":12.9436956,"longitude":77.5714816},{"name":"surana college jayanagar","address":"16, South End Road, Basavanagudi, Bengaluru, Karnataka 560004, India","latitude":12.9363827,"longitude":77.57814189999999},{"name":"bms engineering college","address":"Bull Temple Road, Basavanagudi, Bengaluru, Karnataka 560019, India","latitude":12.9416079,"longitude":77.56688299999999},{"name":"bnmit engineering college","address":"12th Main Road, 27th Cross, Banashankari Stage II, Banashankari, Bengaluru, Karnataka 560070, India","latitude":12.9219509,"longitude":77.56713909999999},{"name":"mantralayam kurnool","address":"Mantralayam, Andhra Pradesh 518345, India","latitude":15.9413776,"longitude":77.4257319},{"name":"mysore palace","address":"Mysore Palace, Agrahara, Chamrajpura, Mysuru, Karnataka 570004","latitude":12.303889,"longitude":76.65444400000001},{"name":"hampi","address":"Hampi, Karnataka 583239, India","latitude":15.3350132,"longitude":76.46002399999999},{"name":"hampi","address":"Hampi, Karnataka 583239, India","latitude":15.3350132,"longitude":76.46002399999999},{"name":"rameshwaram","address":"Rameswaram, Tamil Nadu 623526, India","latitude":9.2876254,"longitude":79.31292909999999}]